[
    {
        "id": 1,
        "name": "pure maku",
        "address": "Pakkahuoneenkatu 5 B22",
        "imageurl": "https://notjustdev-dummy.s3.us-east-2.amazonaws.com/uber-eats/restaurant1.jpeg",
        "owner": 1,
        "city": "oulu",
        "zipcode": "90100",
        "latitude": 65.0124023,
        "longitude": 25.4723617,
        "rating": 3.0,
        "cookingTime": 20,
        "createdDate": "2023-07-16 07:40",
        "updatedDate": "2023-07-16 07:40",
        "distance": 1.14844527232364
    },
    {
        "id": 2,
        "name": "nekosama",
        "address": "Kauppakortteli Pekuri, Kirkkokatu 16",
        "imageurl": "https://notjustdev-dummy.s3.us-east-2.amazonaws.com/uber-eats/restaurant2.jpeg",
        "owner": 2,
        "city": "oulu",
        "zipcode": "90100",
        "latitude": 65.0147,
        "longitude": 25.4962,
        "rating": 4.0,
        "cookingTime": 30,
        "createdDate": "2023-07-16 07:40",
        "updatedDate": "2023-07-16 07:40",
        "distance": 0.0
    },
    {
        "id": 3,
        "name": "kaupuri5",
        "address": "Kauppurienkatu 5",
        "imageurl": "https://notjustdev-dummy.s3.us-east-2.amazonaws.com/uber-eats/restaurant3.jpeg",
        "owner": 3,
        "city": "oulu",
        "zipcode": "90100",
        "latitude": 65.0128871,
        "longitude": 25.466887,
        "rating": 4.0,
        "cookingTime": 10,
        "createdDate": "2023-07-16 07:40",
        "updatedDate": "2023-07-16 07:40",
        "distance": 1.3914742137029752
    },
    {
        "id": 4,
        "name": "burgerKing",
        "address": "Ritaharjuntie 49",
        "imageurl": "https://notjustdev-dummy.s3.us-east-2.amazonaws.com/uber-eats/restaurant3.jpeg",
        "owner": 4,
        "city": "oulu",
        "zipcode": "90540",
        "latitude": 65.0775092,
        "longitude": 25.4475889,
        "rating": 3.5,
        "cookingTime": 10,
        "createdDate": "2023-07-16 07:40",
        "updatedDate": "2023-07-16 07:40",
        "distance": 7.346941497671654
    },
    {
        "id": 5,
        "name": "grahamMasala",
        "address": "Kajaaninkatu 27",
        "imageurl": "https://notjustdev-dummy.s3.us-east-2.amazonaws.com/uber-eats/restaurant3.jpeg",
        "owner": 5,
        "city": "oulu",
        "zipcode": "90100",
        "latitude": 65.0122502,
        "longitude": 25.4839302,
        "rating": 3.5,
        "cookingTime": 10,
        "createdDate": "2023-07-16 07:40",
        "updatedDate": "2023-07-16 07:40",
        "distance": 0.6374409196401595
    },
    {
        "id": 6,
        "name": "lekker61",
        "address": " Isokatu 61",
        "imageurl": "https://notjustdev-dummy.s3.us-east-2.amazonaws.com/uber-eats/restaurant3.jpeg",
        "owner": 6,
        "city": "oulu",
        "zipcode": "90100",
        "latitude": 65.01212310791016,
        "longitude": 25.473371505737305,
        "rating": 3.5,
        "cookingTime": 20,
        "createdDate": "2023-07-16 07:40",
        "updatedDate": "2023-07-16 07:40",
        "distance": 1.109866872992902
    },
    {
        "id": 7,
        "name": "istabulOriental",
        "address": " Kauppurienkatu 11",
        "imageurl": "https://notjustdev-dummy.s3.us-east-2.amazonaws.com/uber-eats/restaurant3.jpeg",
        "owner": 7,
        "city": "oulu",
        "zipcode": "90100",
        "latitude": 65.01212310791016,
        "longitude": 25.473371505737305,
        "rating": 3.5,
        "cookingTime": 20,
        "createdDate": "2023-07-16 07:40",
        "updatedDate": "2023-07-16 07:40",
        "distance": 1.109866872992902
    },
    {
        "id": 8,
        "name": "rolls",
        "address": "Jatkotie 1",
        "imageurl": "https://notjustdev-dummy.s3.us-east-2.amazonaws.com/uber-eats/restaurant3.jpeg",
        "owner": 8,
        "city": "oulu",
        "zipcode": "90500",
        "latitude": 65.01212310791016,
        "longitude": 25.473371505737305,
        "rating": 3.5,
        "cookingTime": 20,
        "createdDate": "2023-07-16 07:40",
        "updatedDate": "2023-07-16 07:40",
        "distance": 1.109866872992902
    }
]